[
  {"id":"EF P18","name":"PARIS ELYSEE","type":"P","lat":48.871,"lon":2.318,"radius_km":3,"country":"FR","lower_fl":0,"upper_fl":660},
  {"id":"EF P23","name":"VERSAILLES","type":"P","lat":48.804,"lon":2.120,"radius_km":4,"country":"FR","lower_fl":0,"upper_fl":660},
  {"id":"EF R12","name":"BREST MIL","type":"R","lat":48.447,"lon":-4.418,"radius_km":35,"country":"FR","lower_fl":0,"upper_fl":195},
  {"id":"EF R52","name":"CAZAUX MIL","type":"R","lat":44.533,"lon":-1.131,"radius_km":30,"country":"FR","lower_fl":0,"upper_fl":195},
  {"id":"EF D51","name":"LANDES RANGE","type":"D","lat":44.100,"lon":-1.600,"radius_km":70,"country":"FR","lower_fl":0,"upper_fl":460},
  {"id":"EF R14","name":"ISTRES MIL","type":"R","lat":43.523,"lon":4.923,"radius_km":40,"country":"FR","lower_fl":0,"upper_fl":195},
  {"id":"EF D37","name":"CHAMPAGNE RANGE","type":"D","lat":48.700,"lon":4.800,"radius_km":45,"country":"FR","lower_fl":0,"upper_fl":460},
  {"id":"EF D99","name":"BISCAY RANGE","type":"D","lat":45.500,"lon":-4.000,"radius_km":150,"country":"FR","lower_fl":0,"upper_fl":660},
  {"id":"EG P600","name":"BALMORAL","type":"P","lat":57.034,"lon":-3.214,"radius_km":5,"country":"UK","lower_fl":0,"upper_fl":660},
  {"id":"EG R105","name":"LAKENHEATH MIL","type":"R","lat":52.409,"lon":0.561,"radius_km":25,"country":"UK","lower_fl":0,"upper_fl":195},
  {"id":"EG D201","name":"NORTH SEA DANGER","type":"D","lat":56.500,"lon":1.500,"radius_km":100,"country":"UK","lower_fl":0,"upper_fl":460},
  {"id":"EG D323","name":"SALISBURY PLAIN","type":"D","lat":51.187,"lon":-1.850,"radius_km":20,"country":"UK","lower_fl":0,"upper_fl":460},
  {"id":"EG R148","name":"BRIZE NORTON","type":"R","lat":51.751,"lon":-1.577,"radius_km":15,"country":"UK","lower_fl":0,"upper_fl":195},
  {"id":"ED R11","name":"BERLIN GOV","type":"R","lat":52.520,"lon":13.405,"radius_km":12,"country":"DE","lower_fl":0,"upper_fl":660},
  {"id":"ED D17","name":"NORDHORN RANGE","type":"D","lat":52.431,"lon":7.180,"radius_km":40,"country":"DE","lower_fl":0,"upper_fl":460},
  {"id":"ED R34","name":"GRAFENWOEHR MIL","type":"R","lat":49.718,"lon":11.932,"radius_km":45,"country":"DE","lower_fl":0,"upper_fl":195},
  {"id":"ED D40","name":"BAUMHOLDER RANGE","type":"D","lat":49.655,"lon":7.335,"radius_km":30,"country":"DE","lower_fl":0,"upper_fl":460},
  {"id":"ED D65","name":"RHINE VALLEY RANGE","type":"D","lat":50.500,"lon":7.000,"radius_km":55,"country":"DE","lower_fl":0,"upper_fl":460},
  {"id":"LE P22","name":"MADRID RESTRICTED","type":"P","lat":40.470,"lon":-3.560,"radius_km":8,"country":"ES","lower_fl":0,"upper_fl":660},
  {"id":"LE R11","name":"ROTA NAVAL","type":"R","lat":36.643,"lon":-6.349,"radius_km":25,"country":"ES","lower_fl":0,"upper_fl":195},
  {"id":"LE D10","name":"ALBACETE RANGE","type":"D","lat":38.950,"lon":-1.863,"radius_km":50,"country":"ES","lower_fl":0,"upper_fl":460},
  {"id":"LE R28","name":"ZARAGOZA MIL","type":"R","lat":41.666,"lon":-1.041,"radius_km":40,"country":"ES","lower_fl":0,"upper_fl":195},
  {"id":"LI P1","name":"ROME PROHIBITED","type":"P","lat":41.900,"lon":12.483,"radius_km":5,"country":"IT","lower_fl":0,"upper_fl":660},
  {"id":"LI R35","name":"PRATICA DI MARE","type":"R","lat":41.654,"lon":12.445,"radius_km":30,"country":"IT","lower_fl":0,"upper_fl":195},
  {"id":"LI D27","name":"CAGLIARI RANGE","type":"D","lat":39.250,"lon":8.900,"radius_km":60,"country":"IT","lower_fl":0,"upper_fl":460},
  {"id":"LI D50","name":"TYRRHENIAN RANGE","type":"D","lat":41.000,"lon":10.500,"radius_km":80,"country":"IT","lower_fl":0,"upper_fl":460},
  {"id":"EH R14","name":"VLIEHORS RANGE","type":"R","lat":53.250,"lon":4.900,"radius_km":35,"country":"NL","lower_fl":0,"upper_fl":195},
  {"id":"EB R01","name":"KLEINE BROGEL MIL","type":"R","lat":51.168,"lon":5.469,"radius_km":20,"country":"BE","lower_fl":0,"upper_fl":195},
  {"id":"EH D01","name":"NORTH SEA PLATFORMS","type":"D","lat":55.000,"lon":4.000,"radius_km":80,"country":"NL","lower_fl":0,"upper_fl":460},
  {"id":"LS P01","name":"BERN PROHIBITED","type":"P","lat":46.947,"lon":7.450,"radius_km":5,"country":"CH","lower_fl":0,"upper_fl":660},
  {"id":"LO R01","name":"WIEN RESTRICTED","type":"R","lat":48.208,"lon":16.373,"radius_km":15,"country":"AT","lower_fl":0,"upper_fl":660},
  {"id":"LG P01","name":"ATHENS PROHIBITED","type":"P","lat":37.975,"lon":23.737,"radius_km":8,"country":"GR","lower_fl":0,"upper_fl":660},
  {"id":"LG D01","name":"AEGEAN RANGE","type":"D","lat":38.500,"lon":26.500,"radius_km":80,"country":"GR","lower_fl":0,"upper_fl":460},
  {"id":"EP R01","name":"WARSAW RESTRICTED","type":"R","lat":52.230,"lon":21.012,"radius_km":15,"country":"PL","lower_fl":0,"upper_fl":660},
  {"id":"EP D30","name":"BIEDRUSKO RANGE","type":"D","lat":52.517,"lon":16.983,"radius_km":25,"country":"PL","lower_fl":0,"upper_fl":460},
  {"id":"LT P01","name":"ANKARA PROHIBITED","type":"P","lat":39.919,"lon":32.854,"radius_km":10,"country":"TR","lower_fl":0,"upper_fl":660},
  {"id":"LT R01","name":"INCIRLIK MIL","type":"R","lat":37.002,"lon":35.425,"radius_km":30,"country":"TR","lower_fl":0,"upper_fl":195},
  {"id":"LT D60","name":"ANATOLIA RANGE","type":"D","lat":38.500,"lon":31.000,"radius_km":100,"country":"TR","lower_fl":0,"upper_fl":460},
  {"id":"EF R01","name":"ROVANIEMI MIL","type":"R","lat":66.565,"lon":25.832,"radius_km":50,"country":"FI","lower_fl":0,"upper_fl":195},
  {"id":"ES R01","name":"VIDSEL RANGE","type":"R","lat":65.833,"lon":20.150,"radius_km":45,"country":"SE","lower_fl":0,"upper_fl":660},
  {"id":"EN R01","name":"ANDOYA RANGE","type":"R","lat":69.300,"lon":16.133,"radius_km":60,"country":"NO","lower_fl":0,"upper_fl":660},
  {"id":"LD D01","name":"ADRIATIC RANGE","type":"D","lat":44.000,"lon":14.000,"radius_km":100,"country":"HR","lower_fl":0,"upper_fl":460},
  {"id":"LG D99","name":"SOUTH AEGEAN RANGE","type":"D","lat":36.500,"lon":24.500,"radius_km":100,"country":"GR","lower_fl":0,"upper_fl":460},
  {"id":"LB D01","name":"SOFIA MIL RANGE","type":"D","lat":42.400,"lon":23.000,"radius_km":60,"country":"BG","lower_fl":0,"upper_fl":460},
  {"id":"UU P01","name":"MOSCOW PROHIBITED","type":"P","lat":55.751,"lon":37.618,"radius_km":30,"country":"RU","lower_fl":0,"upper_fl":660},
  {"id":"UK R01","name":"KYIV RESTRICTED","type":"R","lat":50.450,"lon":30.523,"radius_km":30,"country":"UA","lower_fl":0,"upper_fl":660},
  {"id":"P56","name":"WASHINGTON DC","type":"P","lat":38.897,"lon":-77.036,"radius_km":25,"country":"US","lower_fl":0,"upper_fl":180},
  {"id":"P49","name":"CAMP DAVID","type":"P","lat":39.648,"lon":-77.466,"radius_km":15,"country":"US","lower_fl":0,"upper_fl":180},
  {"id":"R2508","name":"EDWARDS AFB","type":"R","lat":34.905,"lon":-117.884,"radius_km":75,"country":"US","lower_fl":0,"upper_fl":660},
  {"id":"MOA-NELLIS","name":"NELLIS RANGE","type":"R","lat":37.200,"lon":-115.800,"radius_km":120,"country":"US","lower_fl":180,"upper_fl":660},
  {"id":"OB R01","name":"RIYADH RESTRICTED","type":"R","lat":24.688,"lon":46.722,"radius_km":30,"country":"SA","lower_fl":0,"upper_fl":150},
  {"id":"OR R01","name":"BAGHDAD RESTRICTED","type":"R","lat":33.341,"lon":44.361,"radius_km":40,"country":"IQ","lower_fl":0,"upper_fl":250},
  {"id":"RK R01","name":"SEOUL RESTRICTED","type":"R","lat":37.566,"lon":126.978,"radius_km":20,"country":"KR","lower_fl":0,"upper_fl":660},
  {"id":"ZB R01","name":"BEIJING RESTRICTED","type":"R","lat":39.929,"lon":116.388,"radius_km":25,"country":"CN","lower_fl":0,"upper_fl":660},
  {"id":"RJ R01","name":"TOKYO RESTRICTED","type":"R","lat":35.681,"lon":139.767,"radius_km":15,"country":"JP","lower_fl":0,"upper_fl":660},
  {"id":"VI R01","name":"DELHI RESTRICTED","type":"R","lat":28.614,"lon":77.209,"radius_km":20,"country":"IN","lower_fl":0,"upper_fl":660},
  {"id":"WS R01","name":"SINGAPORE CTR","type":"R","lat":1.364,"lon":103.991,"radius_km":20,"country":"SG","lower_fl":0,"upper_fl":660},
  {"id":"FA R01","name":"JOHANNESBURG RESTRICTED","type":"R","lat":-26.204,"lon":28.044,"radius_km":20,"country":"ZA","lower_fl":0,"upper_fl":660},
  {"id":"YW R01","name":"SYDNEY RESTRICTED","type":"R","lat":-33.869,"lon":151.209,"radius_km":15,"country":"AU","lower_fl":0,"upper_fl":660},
  {"id":"YW D01","name":"WOOMERA RANGE","type":"D","lat":-31.200,"lon":136.800,"radius_km":200,"country":"AU","lower_fl":0,"upper_fl":660},
  {"id":"CYA R01","name":"OTTAWA RESTRICTED","type":"R","lat":45.424,"lon":-75.695,"radius_km":15,"country":"CA","lower_fl":0,"upper_fl":660}
]
